{
"type": "FeatureCollection",
"name": "dogs",
"crs": { "type": "name", "properties": { "name": "urn:ogc:def:crs:OGC:1.3:CRS84" } },
"features": [
{ "type": "Feature", "properties": { "Name": "Apollo Creed aka Apollo", "Address": "815 N.Marshfield Ave, Apt 601, Chicago, IL 60622", "Status": "Adopted", "Latitude": 41.896636, "Longitude": -87.668141 }, "geometry": { "type": "Point", "coordinates": [ -87.668141, 41.896636 ] } },
{ "type": "Feature", "properties": { "Name": "Sandwich aka Earl of Sandwich", "Address": "320 W. Illinois St #C116, Chicago, IL 60654", "Status": "Adopted", "Latitude": 41.891174, "Longitude": -87.636315 }, "geometry": { "type": "Point", "coordinates": [ -87.636315, 41.891174 ] } },
{ "type": "Feature", "properties": { "Name": "Princess Fiona aka Chrissy", "Address": "10S140 Leonard Dr, Willowbrook, IL 60527", "Status": "Adopted", "Latitude": 41.727471, "Longitude": -87.962938 }, "geometry": { "type": "Point", "coordinates": [ -87.962938, 41.727471 ] } },
{ "type": "Feature", "properties": { "Name": "Bonnie and Clyde", "Address": "448 N Carpenter St, Unit E, Chicago, IL 60642", "Status": "Adopted", "Latitude": 41.890275, "Longitude": -87.6539 }, "geometry": { "type": "Point", "coordinates": [ -87.6539, 41.890275 ] } },
{ "type": "Feature", "properties": { "Name": "Squibbles", "Address": "637 N Wells St, Apt 2814, Chicago, Illinois 60654", "Status": "Adopted", "Latitude": 41.893499, "Longitude": -87.634267 }, "geometry": { "type": "Point", "coordinates": [ -87.634267, 41.893499 ] } },
{ "type": "Feature", "properties": { "Name": "Okra", "Address": "9059 S Hamilton, Chicago, IL 60643", "Status": "Adopted", "Latitude": 41.728495, "Longitude": -87.675787 }, "geometry": { "type": "Point", "coordinates": [ -87.675787, 41.728495 ] } },
{ "type": "Feature", "properties": { "Name": "Duke", "Address": "1166 Northbury Lane C1, Wheeling, IL 60090", "Status": "Adopted", "Latitude": 42.152783, "Longitude": -87.945612 }, "geometry": { "type": "Point", "coordinates": [ -87.945612, 42.152783 ] } },
{ "type": "Feature", "properties": { "Name": "Rogue aka Lily", "Address": "1125 S. Park Terrace, Chicago, IL 60605", "Status": "Adopted", "Latitude": 41.868927, "Longitude": -87.62958 }, "geometry": { "type": "Point", "coordinates": [ -87.62958, 41.868927 ] } },
{ "type": "Feature", "properties": { "Name": "Turbo", "Address": "5016 S. Washtenaw Ave, Apt 1, Chicago, IL 60632", "Status": "Adopted", "Latitude": 41.802291, "Longitude": -87.691952 }, "geometry": { "type": "Point", "coordinates": [ -87.691952, 41.802291 ] } },
{ "type": "Feature", "properties": { "Name": "Tapioca aka Maisy", "Address": "15401 Royal Georgian Road, Orland Park, IL 60462", "Status": "Adopted", "Latitude": 41.61061, "Longitude": -87.836371 }, "geometry": { "type": "Point", "coordinates": [ -87.836371, 41.61061 ] } },
{ "type": "Feature", "properties": { "Name": "Paisley aka Simone", "Address": "20714 Greenwood Ct, Olympia Fields, IL 60461", "Status": "Adopted", "Latitude": 41.512705, "Longitude": -87.696481 }, "geometry": { "type": "Point", "coordinates": [ -87.696481, 41.512705 ] } },
{ "type": "Feature", "properties": { "Name": "Delilah aka Judy Lu", "Address": "5860 N. Kenmore Ave, Apt 612, Chicago, IL 60660", "Status": "Adopted", "Latitude": 41.989141, "Longitude": -87.657189 }, "geometry": { "type": "Point", "coordinates": [ -87.657189, 41.989141 ] } },
{ "type": "Feature", "properties": { "Name": "Trooper", "Address": "15 E. North Ave, Apt 3, Lake Bluff, IL 60044", "Status": "Adopted", "Latitude": 42.280335, "Longitude": -87.845499 }, "geometry": { "type": "Point", "coordinates": [ -87.845499, 42.280335 ] } },
{ "type": "Feature", "properties": { "Name": "Whip Cream aka Millie", "Address": "1510 Central Ave, Wilmette, IL 60091", "Status": "Adopted", "Latitude": 42.073986, "Longitude": -87.715068 }, "geometry": { "type": "Point", "coordinates": [ -87.715068, 42.073986 ] } },
{ "type": "Feature", "properties": { "Name": "Cherry aka Sophie", "Address": "3640 S. Hermitage, Chicago, Illinois 60609 ", "Status": "Adopted", "Latitude": 41.827527, "Longitude": -87.669457 }, "geometry": { "type": "Point", "coordinates": [ -87.669457, 41.827527 ] } },
{ "type": "Feature", "properties": { "Name": "Shiney ", "Address": "4416 S. Spaulding Ave, Apt 206, Chicago, IL 60632", "Status": "Adopted", "Latitude": 41.812867, "Longitude": -87.706702 }, "geometry": { "type": "Point", "coordinates": [ -87.706702, 41.812867 ] } },
{ "type": "Feature", "properties": { "Name": "Shakira", "Address": "1955 N Halsted st, Unit 1, Chicago, Il 60614", "Status": "Adopted", "Latitude": 41.917582, "Longitude": -87.648134 }, "geometry": { "type": "Point", "coordinates": [ -87.648134, 41.917582 ] } },
{ "type": "Feature", "properties": { "Name": "Aurora", "Address": "4727 W. 128th Place, Alsip, IL 60803", "Status": "Adopted", "Latitude": 41.657714, "Longitude": -87.736843 }, "geometry": { "type": "Point", "coordinates": [ -87.736843, 41.657714 ] } },
{ "type": "Feature", "properties": { "Name": "Li Shang aka Alekzander", "Address": "170 Wilcox Ave, Elgin, IL 60123", "Status": "Adopted", "Latitude": 42.029975, "Longitude": -88.298409 }, "geometry": { "type": "Point", "coordinates": [ -88.298409, 42.029975 ] } },
{ "type": "Feature", "properties": { "Name": "Snow White aka Zoey", "Address": "2628 S 10th Ave, Broadview, IL 60155", "Status": "Adopted", "Latitude": 41.855839, "Longitude": -87.844421 }, "geometry": { "type": "Point", "coordinates": [ -87.844421, 41.855839 ] } },
{ "type": "Feature", "properties": { "Name": "Pochantas aka Kaia", "Address": "2010 W. Superior St. Apt 1, Chicago, IL 60612", "Status": "Adopted", "Latitude": 41.894953, "Longitude": -87.677544 }, "geometry": { "type": "Point", "coordinates": [ -87.677544, 41.894953 ] } },
{ "type": "Feature", "properties": { "Name": "Mulan aka Molly Rose", "Address": "3607 Ronald Road, Crete, IL 60417", "Status": "Adopted", "Latitude": 41.463006, "Longitude": -87.585452 }, "geometry": { "type": "Point", "coordinates": [ -87.585452, 41.463006 ] } },
{ "type": "Feature", "properties": { "Name": "Nikki", "Address": "355 W. Harding Road, Lombard, IL 60148", "Status": "Adopted", "Latitude": 41.87228, "Longitude": -88.026079 }, "geometry": { "type": "Point", "coordinates": [ -88.026079, 41.87228 ] } },
{ "type": "Feature", "properties": { "Name": "Paloma", "Address": "717 E. Hosmer St., Loves Park, IL 61111", "Status": "Adopted", "Latitude": 42.321155, "Longitude": -89.053453 }, "geometry": { "type": "Point", "coordinates": [ -89.053453, 42.321155 ] } },
{ "type": "Feature", "properties": { "Name": "Pinto aka Winnie", "Address": "1255 S. State Street, Chicago, IL 60605", "Status": "Adopted", "Latitude": 41.865933, "Longitude": -87.626959 }, "geometry": { "type": "Point", "coordinates": [ -87.626959, 41.865933 ] } },
{ "type": "Feature", "properties": { "Name": "Lentil aka Thor", "Address": "1503 North Bosworth #1, Chicago, IL 60642", "Status": "Adopted", "Latitude": 41.909023, "Longitude": -87.666139 }, "geometry": { "type": "Point", "coordinates": [ -87.666139, 41.909023 ] } },
{ "type": "Feature", "properties": { "Name": "Lima aka Jinora", "Address": "2605 Landis Farm Rd, Urbana, IL 61802", "Status": "Adopted", "Latitude": 40.140569, "Longitude": -88.18413 }, "geometry": { "type": "Point", "coordinates": [ -88.18413, 40.140569 ] } },
{ "type": "Feature", "properties": { "Name": "Chickpea aka Emmi", "Address": "1744 W. Belmont Ave, Apt 1, Chicago, IL 60657", "Status": "Adopted", "Latitude": 41.939904, "Longitude": -87.672887 }, "geometry": { "type": "Point", "coordinates": [ -87.672887, 41.939904 ] } },
{ "type": "Feature", "properties": { "Name": "Garbanzo aka Bear", "Address": "915 Burnham Ct, Glenview, IL 60025", "Status": "Adopted", "Latitude": 42.071576, "Longitude": -87.826224 }, "geometry": { "type": "Point", "coordinates": [ -87.826224, 42.071576 ] } },
{ "type": "Feature", "properties": { "Name": "Navy aka Oxford", "Address": "1014 Holly Lane, Munster, IN 46321", "Status": "Adopted", "Latitude": 41.546538, "Longitude": -87.503972 }, "geometry": { "type": "Point", "coordinates": [ -87.503972, 41.546538 ] } },
{ "type": "Feature", "properties": { "Name": "Cowpea aka Valerie", "Address": "529 N. Grant St, Hinsdale, IL 60521", "Status": "Adopted", "Latitude": 41.811233, "Longitude": -87.932293 }, "geometry": { "type": "Point", "coordinates": [ -87.932293, 41.811233 ] } },
{ "type": "Feature", "properties": { "Name": "Green Bean aka Hank", "Address": "2801 E. 96th St, Chicago, IL 60617", "Status": "Adopted", "Latitude": 41.720591, "Longitude": -87.556365 }, "geometry": { "type": "Point", "coordinates": [ -87.556365, 41.720591 ] } },
{ "type": "Feature", "properties": { "Name": "Bush's Baked Beans aka Chewie", "Address": "346 Clark St, Marseilles, IL 61341", "Status": "Adopted", "Latitude": 41.331286, "Longitude": -88.712487 }, "geometry": { "type": "Point", "coordinates": [ -88.712487, 41.331286 ] } },
{ "type": "Feature", "properties": { "Name": "Adzuki aka Harley", "Address": "925 E. 7th St, Lockport, IL 60441", "Status": "Adopted", "Latitude": 41.58984, "Longitude": -88.041054 }, "geometry": { "type": "Point", "coordinates": [ -88.041054, 41.58984 ] } },
{ "type": "Feature", "properties": { "Name": "Sweet Cheeks aka Moose", "Address": "3844 N. Ashland Ave, Unit 33, Chicago, IL 60613", "Status": "Adopted", "Latitude": 41.952031, "Longitude": -87.669374 }, "geometry": { "type": "Point", "coordinates": [ -87.669374, 41.952031 ] } },
{ "type": "Feature", "properties": { "Name": "Wombat aka Curtis", "Address": "2514 N Lincoln Ave Apt, Unit 3, Chicago, Illinois 60614", "Status": "Adopted", "Latitude": 41.927449, "Longitude": -87.651817 }, "geometry": { "type": "Point", "coordinates": [ -87.651817, 41.927449 ] } },
{ "type": "Feature", "properties": { "Name": "Pita Chip aka Shiloh", "Address": "1006 Woodbine Ave, Oak Park, IL 60302", "Status": "Adopted", "Latitude": 41.903772, "Longitude": -87.79911 }, "geometry": { "type": "Point", "coordinates": [ -87.79911, 41.903772 ] } },
{ "type": "Feature", "properties": { "Name": "Charlotte aka Sylvie", "Address": "729 Inverness Rd, Lisle, IL 60532", "Status": "Adopted", "Latitude": 41.78773, "Longitude": -88.066182 }, "geometry": { "type": "Point", "coordinates": [ -88.066182, 41.78773 ] } },
{ "type": "Feature", "properties": { "Name": "Cameron ", "Address": "3523 S. Washtenaw Ave., Chicago, IL 60632", "Status": "Adopted", "Latitude": 41.829435, "Longitude": -87.69201 }, "geometry": { "type": "Point", "coordinates": [ -87.69201, 41.829435 ] } },
{ "type": "Feature", "properties": { "Name": "Roger", "Address": "3641 S. Wood St, Chicago, IL 60609", "Status": "Adopted", "Latitude": 41.827456, "Longitude": -87.669974 }, "geometry": { "type": "Point", "coordinates": [ -87.669974, 41.827456 ] } },
{ "type": "Feature", "properties": { "Name": "Nana aka Frito", "Address": "3354 S Aberdeen st, Chicago, IL 60608", "Status": "Adopted", "Latitude": 41.832733, "Longitude": -87.653804 }, "geometry": { "type": "Point", "coordinates": [ -87.653804, 41.832733 ] } },
{ "type": "Feature", "properties": { "Name": "Chili", "Address": "2531 S. Hillock, Chicago, IL 60608", "Status": "Adopted", "Latitude": 41.84615, "Longitude": -87.654091 }, "geometry": { "type": "Point", "coordinates": [ -87.654091, 41.84615 ] } },
{ "type": "Feature", "properties": { "Name": "Tum Tum", "Address": "239 W. 22nd Place, Unit 2, Chicago, IL 60616", "Status": "Adopted", "Latitude": 41.851953, "Longitude": -87.633548 }, "geometry": { "type": "Point", "coordinates": [ -87.633548, 41.851953 ] } },
{ "type": "Feature", "properties": { "Name": "Walter ", "Address": "468 W 27th St, Chicago, IL 60616", "Status": "Adopted", "Latitude": 41.844784, "Longitude": -87.639313 }, "geometry": { "type": "Point", "coordinates": [ -87.639313, 41.844784 ] } },
{ "type": "Feature", "properties": { "Name": "Milo", "Address": "165 N. Desplaines Street, Unit 510, Chicago, IL 60661", "Status": "Adopted", "Latitude": 41.885078, "Longitude": -87.644074 }, "geometry": { "type": "Point", "coordinates": [ -87.644074, 41.885078 ] } },
{ "type": "Feature", "properties": { "Name": "Topper", "Address": "2020 Kellogg Ave, Waukegan, IL 60087", "Status": "Adopted", "Latitude": 42.389018, "Longitude": -87.859105 }, "geometry": { "type": "Point", "coordinates": [ -87.859105, 42.389018 ] } },
{ "type": "Feature", "properties": { "Name": "Wrigley aka Benito", "Address": "18408 Martin Avenue, Homewood, IL 60430", "Status": "Adopted", "Latitude": 41.5551, "Longitude": -87.667035 }, "geometry": { "type": "Point", "coordinates": [ -87.667035, 41.5551 ] } },
{ "type": "Feature", "properties": { "Name": "Beanie", "Address": "20 E. Goethe St., Unit 606, Chicago, IL 60610", "Status": "Adopted", "Latitude": 41.90623, "Longitude": -87.627962 }, "geometry": { "type": "Point", "coordinates": [ -87.627962, 41.90623 ] } },
{ "type": "Feature", "properties": { "Name": "Energizer Bunny ", "Address": "5637 S. Neenah, Chicago, IL 60638", "Status": "Adopted", "Latitude": 41.789289, "Longitude": -87.785064 }, "geometry": { "type": "Point", "coordinates": [ -87.785064, 41.789289 ] } },
{ "type": "Feature", "properties": { "Name": "Mr. Winky aka Winston", "Address": "715 Washington Blvd, 2D, Oak Park, IL 60302", "Status": "Adopted", "Latitude": 41.881425, "Longitude": -87.79284 }, "geometry": { "type": "Point", "coordinates": [ -87.79284, 41.881425 ] } },
{ "type": "Feature", "properties": { "Name": "Sami", "Address": "2949 Ashton Court, Westchester, IL 60154", "Status": "Adopted", "Latitude": 41.835821, "Longitude": -87.895022 }, "geometry": { "type": "Point", "coordinates": [ -87.895022, 41.835821 ] } },
{ "type": "Feature", "properties": { "Name": "Scoops", "Address": "2252 N. Fremont St., Unit 1, Chicago, IL 60614", "Status": "Adopted", "Latitude": 41.923347, "Longitude": -87.651374 }, "geometry": { "type": "Point", "coordinates": [ -87.651374, 41.923347 ] } },
{ "type": "Feature", "properties": { "Name": "Sprinkles", "Address": "368 Jackson Avenue, Glencoe, IL 60022", "Status": "Adopted", "Latitude": 42.122695, "Longitude": -87.750832 }, "geometry": { "type": "Point", "coordinates": [ -87.750832, 42.122695 ] } },
{ "type": "Feature", "properties": { "Name": "Phillip", "Address": "600 S. Dearborn Apt 611, Chicago, IL 60605", "Status": "Adopted", "Latitude": 41.874043, "Longitude": -87.629449 }, "geometry": { "type": "Point", "coordinates": [ -87.629449, 41.874043 ] } },
{ "type": "Feature", "properties": { "Name": "Mostaccioli aka Noodle", "Address": "715 N. Grove Ave, Oak Park, IL 60302", "Status": "Adopted", "Latitude": 41.898644, "Longitude": -87.796617 }, "geometry": { "type": "Point", "coordinates": [ -87.796617, 41.898644 ] } },
{ "type": "Feature", "properties": { "Name": "Maya", "Address": "5130 S. Kenwood Ave, Apt 408, Chicago, IL 60615", "Status": "Adopted", "Latitude": 41.801392, "Longitude": -87.593905 }, "geometry": { "type": "Point", "coordinates": [ -87.593905, 41.801392 ] } },
{ "type": "Feature", "properties": { "Name": "Wheezer aka Mr. Dibs", "Address": "4600 w 88th st 2e, Hometown, Il 60456", "Status": "Adopted", "Latitude": 41.73216, "Longitude": -87.736789 }, "geometry": { "type": "Point", "coordinates": [ -87.736789, 41.73216 ] } },
{ "type": "Feature", "properties": { "Name": "Kaiser", "Address": "239 W. 22nd Place, Unit 2, Chicago, IL 60616", "Status": "Adopted", "Latitude": 41.851953, "Longitude": -87.633548 }, "geometry": { "type": "Point", "coordinates": [ -87.633548, 41.851953 ] } },
{ "type": "Feature", "properties": { "Name": "Cassie", "Address": "13418 S. Burley, Chicago, Illinois 60633", "Status": "Adopted", "Latitude": 41.651271, "Longitude": -87.545079 }, "geometry": { "type": "Point", "coordinates": [ -87.545079, 41.651271 ] } },
{ "type": "Feature", "properties": { "Name": "Buddy Halligan aka Petey ", "Address": "6544 W. Palatine Ave., Chicago, IL 60631", "Status": "Adopted", "Latitude": 41.995709, "Longitude": -87.791745 }, "geometry": { "type": "Point", "coordinates": [ -87.791745, 41.995709 ] } },
{ "type": "Feature", "properties": { "Name": "Railey aka Lucy", "Address": "7755 e Dondanville Rd, Braceville, IL 60407", "Status": "Adopted", "Latitude": 41.201338, "Longitude": -88.248535 }, "geometry": { "type": "Point", "coordinates": [ -88.248535, 41.201338 ] } },
{ "type": "Feature", "properties": { "Name": "Howdy", "Address": "3640 S 53RD AVE, 2, CICERO, Illinois 60804Â ", "Status": "Adopted", "Latitude": 41.826617, "Longitude": -87.756009 }, "geometry": { "type": "Point", "coordinates": [ -87.756009, 41.826617 ] } },
{ "type": "Feature", "properties": { "Name": "Orzo aka Russo", "Address": "1247 W. Leland Ave, #2, Chicago, Illinois 60640", "Status": "Adopted", "Latitude": 41.967028, "Longitude": -87.661554 }, "geometry": { "type": "Point", "coordinates": [ -87.661554, 41.967028 ] } },
{ "type": "Feature", "properties": { "Name": "Guinness aka Truffle", "Address": "1804 S Ashland Ave #2, Chicago, IL 60608", "Status": "Adopted", "Latitude": 41.857528, "Longitude": -87.66655 }, "geometry": { "type": "Point", "coordinates": [ -87.66655, 41.857528 ] } },
{ "type": "Feature", "properties": { "Name": "Paleta ", "Address": "843 N. Humphrey Ave., Oak Park, IL 60302", "Status": "Adopted", "Latitude": 41.90174, "Longitude": -87.776859 }, "geometry": { "type": "Point", "coordinates": [ -87.776859, 41.90174 ] } },
{ "type": "Feature", "properties": { "Name": "Pastrami aka Walter", "Address": "6028, Ridge Ct, Lisle, IL 60532", "Status": "Adopted", "Latitude": 41.776146, "Longitude": -88.066047 }, "geometry": { "type": "Point", "coordinates": [ -88.066047, 41.776146 ] } },
{ "type": "Feature", "properties": { "Name": "Tomas", "Address": "2326 West Farwell Ave., 1E, Chicago, IL 60645", "Status": "Adopted", "Latitude": 42.006538, "Longitude": -87.68918 }, "geometry": { "type": "Point", "coordinates": [ -87.68918, 42.006538 ] } },
{ "type": "Feature", "properties": { "Name": "Tickles aka Daisy", "Address": "4866 N Talman Ave. #3A, Chicago, IL 60625", "Status": "Adopted", "Latitude": 41.970577, "Longitude": -87.695446 }, "geometry": { "type": "Point", "coordinates": [ -87.695446, 41.970577 ] } },
{ "type": "Feature", "properties": { "Name": "Nashville aka Linc", "Address": "423 S Taylor Ave, Apt 3W, Oak park, IL 60302", "Status": "Adopted", "Latitude": 41.881085, "Longitude": -87.778521 }, "geometry": { "type": "Point", "coordinates": [ -87.778521, 41.881085 ] } },
{ "type": "Feature", "properties": { "Name": "Casper", "Address": "6819 West Foster Ave, Chicago, IL 60656", "Status": "Adopted", "Latitude": 41.975311, "Longitude": -87.798404 }, "geometry": { "type": "Point", "coordinates": [ -87.798404, 41.975311 ] } },
{ "type": "Feature", "properties": { "Name": "Marilyn Monroe", "Address": "9420 S Utica, Evergreen park, IL 60805", "Status": "Adopted", "Latitude": 41.72173, "Longitude": -87.698406 }, "geometry": { "type": "Point", "coordinates": [ -87.698406, 41.72173 ] } },
{ "type": "Feature", "properties": { "Name": "Bento Box aka Max", "Address": "8500 N. Shermer, Niles, IL 60714", "Status": "Adopted", "Latitude": 42.035962, "Longitude": -87.803442 }, "geometry": { "type": "Point", "coordinates": [ -87.803442, 42.035962 ] } },
{ "type": "Feature", "properties": { "Name": "Mulligan aka Blake", "Address": "12531 S. Meade Ave., Palos Heights, IL 60463", "Status": "Adopted", "Latitude": 41.663659, "Longitude": -87.770652 }, "geometry": { "type": "Point", "coordinates": [ -87.770652, 41.663659 ] } },
{ "type": "Feature", "properties": { "Name": "Papaya aka Ailey", "Address": "2046 W. Summerdale Ave., Chicago, IL 60625", "Status": "Adopted", "Latitude": 41.979002, "Longitude": -87.681398 }, "geometry": { "type": "Point", "coordinates": [ -87.681398, 41.979002 ] } },
{ "type": "Feature", "properties": { "Name": "Raggedy Ann aka Sydnee", "Address": "1440 N Lake Shore Dr., #17AC, Chicago, IL 60610", "Status": "Adopted", "Latitude": 41.909014, "Longitude": -87.626585 }, "geometry": { "type": "Point", "coordinates": [ -87.626585, 41.909014 ] } },
{ "type": "Feature", "properties": { "Name": "Honey Badger aka Georgie", "Address": "550 W Surf St, Unit 219, Chicago, IL 60657", "Status": "Adopted", "Latitude": 41.934298, "Longitude": -87.643819 }, "geometry": { "type": "Point", "coordinates": [ -87.643819, 41.934298 ] } },
{ "type": "Feature", "properties": { "Name": "Roman Candle", "Address": "7830 Madison St, Forest Park, IL 60130", "Status": "Adopted", "Latitude": 41.879159, "Longitude": -87.820809 }, "geometry": { "type": "Point", "coordinates": [ -87.820809, 41.879159 ] } },
{ "type": "Feature", "properties": { "Name": "Skipper", "Address": "935 W. Dakin Street Apt 1W, Chicago, IL 60613", "Status": "Adopted", "Latitude": 41.953355, "Longitude": -87.653502 }, "geometry": { "type": "Point", "coordinates": [ -87.653502, 41.953355 ] } },
{ "type": "Feature", "properties": { "Name": "Rowdy", "Address": "616 N. Harvey Ave, Oak Park, IL 60302", "Status": "Adopted", "Latitude": 41.897109, "Longitude": -87.781395 }, "geometry": { "type": "Point", "coordinates": [ -87.781395, 41.897109 ] } },
{ "type": "Feature", "properties": { "Name": "Dale", "Address": "468 W 27th St, Chicago, IL 60616", "Status": "Foster Dog", "Latitude": 41.844784, "Longitude": -87.639313 }, "geometry": { "type": "Point", "coordinates": [ -87.639313, 41.844784 ] } },
{ "type": "Feature", "properties": { "Name": "Sinatra", "Address": "239 W. 22nd Place, Unit 2, Chicago, IL 60616", "Status": "Foster Dog", "Latitude": 41.851953, "Longitude": -87.633548 }, "geometry": { "type": "Point", "coordinates": [ -87.633548, 41.851953 ] } },
{ "type": "Feature", "properties": { "Name": "Cookie Dough", "Address": "239 W. 22nd Place, Unit 2, Chicago, IL 60616", "Status": "Foster Dog", "Latitude": 41.851953, "Longitude": -87.633548 }, "geometry": { "type": "Point", "coordinates": [ -87.633548, 41.851953 ] } },
{ "type": "Feature", "properties": { "Name": "Figgy Pudding", "Address": "3523 S. Washtenaw Ave., Chicago, IL 60632", "Status": "Foster Dog", "Latitude": 41.829435, "Longitude": -87.69201 }, "geometry": { "type": "Point", "coordinates": [ -87.69201, 41.829435 ] } },
{ "type": "Feature", "properties": { "Name": "Etouffee", "Address": "616 N. Harvey Ave, Oak Park, IL 60302", "Status": "Foster Dog", "Latitude": 41.897109, "Longitude": -87.781395 }, "geometry": { "type": "Point", "coordinates": [ -87.781395, 41.897109 ] } },
{ "type": "Feature", "properties": { "Name": "Zucchini", "Address": "239 W. 22nd Place, Unit 2, Chicago, IL 60616", "Status": "Foster Dog", "Latitude": 41.851953, "Longitude": -87.633548 }, "geometry": { "type": "Point", "coordinates": [ -87.633548, 41.851953 ] } },
{ "type": "Feature", "properties": { "Name": "Gummy Bear", "Address": "2140 S. Washtenaw Ave, Chicago, IL 60608", "Status": "Foster Dog", "Latitude": 41.85254, "Longitude": -87.693369 }, "geometry": { "type": "Point", "coordinates": [ -87.693369, 41.85254 ] } }
]
}
